Category Name,Camera Name,View ID,X,Y,Z,heading,pitch,TrackIR Enabled,Smooth Transition,HeadShake,RetainMouseLookPosition, Enable Temporary Positioning,Enable Linear Transition,Linear Transition Frames,Enable Auto Advance,Limit TrackIR, Max TrackIR X,Max TrackIR Y,Max TrackIR Z,Min TrackIR X,Min TrackIR Y,Min TrackIR Z,Zoom,FOV,Enable FOV,Smooth Camera Joins, Enable Track Heading, Enable Track Pitch, CGY Offset, CGZ Offset, Enable Level Camera, Enable View Axis, Enable External Camera, Enable Cineflex Camera, Enable Free Camera, Initial Movement Range, Enable Bezier Transition, Run Code,Transition Seconds,Hidden Camera,X-Camera Version,Default FOV,Aircraft,Author,Camera File Version,Category Index,Manual Enable, Latitude,Longitude, Elevation, X-Plane 9 Chase View, roll, Target Following Camera, Scenic Flyer GA Panel, Scenic Flyer Glass Panel, Cinema Verite, CGX Offset, Hide Yoke, Enable Camera Axis, Enable XPRealistic, Enable RealView, Disable 3D Cockpit Zoom, AGL Camera, Height ABove AGL (Meters),Circle View, Transition Delay, Script ID, Camera Origin,Target Reciprocal 
Cockpit,Pilot View,2,-0.458702,2.029173,-26.286364,0.000000,0.000000,FALSE,FALSE,FALSE,TRUE,TRUE,FALSE,0,FALSE,FALSE,0.000000,0.000000,0.000000,0.000000,0.000000,0.000000,1.000000,60.000000,FALSE,FALSE,FALSE,FALSE,0.000000,0.000000,FALSE,FALSE,FALSE,FALSE,FALSE,2,FALSE,13398,0.0,FALSE,2.4.2,45.000000,A330,Stephan Weiser ,2023-04-20 08:14:07 ,0,FALSE,0,0,0,FALSE,0.000000,FALSE,FALSE,FALSE,FALSE,0.000000,0,FALSE,FALSE,FALSE,FALSE,FALSE,0.000000,FALSE,0.0,0,0,FALSE
Cockpit,Co-Pilot View,0,0.441298,2.029173,-26.286364,0.000000,0.000000,FALSE,FALSE,FALSE,TRUE,TRUE,FALSE,0,FALSE,FALSE,0.000000,0.000000,0.000000,0.000000,0.000000,0.000000,1.000000,60.000000,FALSE,FALSE,FALSE,FALSE,0.000000,0.000000,FALSE,FALSE,FALSE,FALSE,FALSE,2,FALSE,13398,0.0,FALSE,2.4.2,45.000000,A330,Stephan Weiser ,2023-04-20 08:14:07 ,0,FALSE,0,0,0,FALSE,0.000000,FALSE,FALSE,FALSE,FALSE,0.000000,0,FALSE,FALSE,FALSE,FALSE,FALSE,0.000000,FALSE,0.0,0,0,FALSE
Cockpit,Left Window,3,-0.566477,2.029173,-26.359064,304.000000,0.000000,FALSE,FALSE,FALSE,TRUE,TRUE,FALSE,0,FALSE,FALSE,0.000000,0.000000,0.000000,0.000000,0.000000,0.000000,1.000000,60.000000,FALSE,FALSE,FALSE,FALSE,0.000000,0.000000,FALSE,FALSE,FALSE,FALSE,FALSE,1,FALSE,13398,0.0,FALSE,2.4.2,45.000000,A330,Stephan Weiser ,2023-04-20 08:14:07 ,0,FALSE,0,0,0,FALSE,0.000000,FALSE,FALSE,FALSE,FALSE,0.000000,0,FALSE,FALSE,FALSE,FALSE,FALSE,0.000000,FALSE,0.0,0,0,FALSE
Cockpit,Right Window,5,0.544158,2.024173,-26.348162,59.000000,0.000000,FALSE,FALSE,FALSE,TRUE,TRUE,FALSE,0,FALSE,FALSE,0.000000,0.000000,0.000000,0.000000,0.000000,0.000000,1.000000,60.000000,FALSE,FALSE,FALSE,FALSE,0.000000,0.000000,FALSE,FALSE,FALSE,FALSE,FALSE,1,FALSE,13398,0.0,FALSE,2.4.2,45.000000,A330,Stephan Weiser ,2023-04-20 08:14:07 ,0,FALSE,0,0,0,FALSE,0.000000,FALSE,FALSE,FALSE,FALSE,0.000000,0,FALSE,FALSE,FALSE,FALSE,FALSE,0.000000,FALSE,0.0,0,0,FALSE
Cockpit,Complete Instruments,1,-0.008509,2.058447,-26.046007,1.125000,340.125000,FALSE,FALSE,FALSE,TRUE,TRUE,FALSE,0,FALSE,FALSE,0.000000,0.000000,0.000000,0.000000,0.000000,0.000000,1.000000,70.500000,TRUE,FALSE,FALSE,FALSE,0.000000,0.000000,FALSE,FALSE,FALSE,FALSE,FALSE,1,FALSE,13398,0.0,FALSE,2.4.2,45.000000,A330,Stephan Weiser ,2023-04-20 08:14:07 ,0,FALSE,0,0,0,FALSE,0.000000,FALSE,FALSE,FALSE,FALSE,0.000000,0,FALSE,FALSE,FALSE,FALSE,FALSE,0.000000,FALSE,0.0,0,0,FALSE
Cockpit,Pedestral,0,-0.000405,2.104108,-26.488558,0.000000,275.125000,FALSE,FALSE,FALSE,TRUE,TRUE,FALSE,0,FALSE,FALSE,0.000000,0.000000,0.000000,0.000000,0.000000,0.000000,1.000000,70.500000,TRUE,FALSE,FALSE,FALSE,0.000000,0.000000,FALSE,FALSE,FALSE,FALSE,FALSE,1,FALSE,13398,0.0,FALSE,2.4.2,45.000000,A330,Stephan Weiser ,2023-04-20 08:14:07 ,0,FALSE,0,0,0,FALSE,0.000000,FALSE,FALSE,FALSE,FALSE,0.000000,0,FALSE,FALSE,FALSE,FALSE,FALSE,0.000000,FALSE,0.0,0,0,FALSE
Cockpit,Throttle,0,-0.000405,1.971540,-26.801645,0.000000,275.125000,FALSE,FALSE,FALSE,TRUE,TRUE,FALSE,0,FALSE,FALSE,0.000000,0.000000,0.000000,0.000000,0.000000,0.000000,1.000000,70.500000,TRUE,FALSE,FALSE,FALSE,0.000000,0.000000,FALSE,FALSE,FALSE,FALSE,FALSE,1,FALSE,13398,0.0,FALSE,2.4.2,45.000000,A330,Stephan Weiser ,2023-04-20 08:14:07 ,0,FALSE,0,0,0,FALSE,0.000000,FALSE,FALSE,FALSE,FALSE,0.000000,0,FALSE,FALSE,FALSE,FALSE,FALSE,0.000000,FALSE,0.0,0,0,FALSE
Cockpit,Pilot FMC,0,-0.195405,1.591081,-26.981327,0.000000,275.125000,FALSE,FALSE,FALSE,TRUE,TRUE,FALSE,0,FALSE,FALSE,0.000000,0.000000,0.000000,0.000000,0.000000,0.000000,1.000000,70.500000,TRUE,FALSE,FALSE,FALSE,0.000000,0.000000,FALSE,FALSE,FALSE,FALSE,FALSE,1,FALSE,13398,0.0,FALSE,2.4.2,45.000000,A330,Stephan Weiser ,2023-04-20 08:14:07 ,0,FALSE,0,0,0,FALSE,0.000000,FALSE,FALSE,FALSE,FALSE,0.000000,0,FALSE,FALSE,FALSE,FALSE,FALSE,0.000000,FALSE,0.0,0,0,FALSE
Cockpit,Overhead (lower),0,-0.000405,1.504421,-26.419384,0.000000,76.875000,FALSE,FALSE,FALSE,TRUE,TRUE,FALSE,0,FALSE,FALSE,0.000000,0.000000,0.000000,0.000000,0.000000,0.000000,1.000000,70.500000,TRUE,FALSE,FALSE,FALSE,0.000000,0.000000,FALSE,FALSE,FALSE,FALSE,FALSE,1,FALSE,13398,0.0,FALSE,2.4.2,45.000000,A330,Stephan Weiser ,2023-04-20 08:14:07 ,0,FALSE,0,0,0,FALSE,0.000000,FALSE,FALSE,FALSE,FALSE,0.000000,0,FALSE,FALSE,FALSE,FALSE,FALSE,0.000000,FALSE,0.0,0,0,FALSE
Cockpit,Overhead (upper),0,-0.000405,1.611144,-25.961655,0.000000,76.875000,FALSE,FALSE,FALSE,TRUE,TRUE,FALSE,0,FALSE,FALSE,0.000000,0.000000,0.000000,0.000000,0.000000,0.000000,1.000000,70.500000,TRUE,FALSE,FALSE,FALSE,0.000000,0.000000,FALSE,FALSE,FALSE,FALSE,FALSE,1,FALSE,13398,0.0,FALSE,2.4.2,45.000000,A330,Stephan Weiser ,2023-04-20 08:14:07 ,0,FALSE,0,0,0,FALSE,0.000000,FALSE,FALSE,FALSE,FALSE,0.000000,0,FALSE,FALSE,FALSE,FALSE,FALSE,0.000000,FALSE,0.0,0,0,FALSE
External,Left Wing,31,-3.098302,1.971115,4.306620,282.078125,350.000000,FALSE,FALSE,FALSE,TRUE,TRUE,FALSE,0,FALSE,FALSE,0.000000,0.000000,0.000000,0.000000,0.000000,0.000000,1.000000,75.300003,TRUE,FALSE,FALSE,FALSE,0.000000,0.000000,FALSE,FALSE,FALSE,FALSE,FALSE,2,FALSE,13398,0.0,FALSE,2.4.2,45.000000,A330,Stephan Weiser ,2023-04-20 08:14:07 ,1,FALSE,0,0,0,FALSE,0.000000,FALSE,FALSE,FALSE,FALSE,0.000000,0,FALSE,FALSE,FALSE,FALSE,FALSE,0.000000,FALSE,0.0,0,0,FALSE
External,Right Wing,32,3.145831,2.266592,3.290212,86.871872,348.375000,FALSE,FALSE,FALSE,TRUE,TRUE,FALSE,0,FALSE,FALSE,0.000000,0.000000,0.000000,0.000000,0.000000,0.000000,1.000000,75.300003,TRUE,FALSE,FALSE,FALSE,0.000000,0.000000,FALSE,FALSE,FALSE,FALSE,FALSE,2,FALSE,13398,0.0,FALSE,2.4.2,45.000000,A330,Stephan Weiser ,2023-04-20 08:14:07 ,1,FALSE,0,0,0,FALSE,0.000000,FALSE,FALSE,FALSE,FALSE,0.000000,0,FALSE,FALSE,FALSE,FALSE,FALSE,0.000000,FALSE,0.0,0,0,FALSE
External,Back Left,33,-51.707207,8.871115,83.001457,30.000000,0.000000,FALSE,FALSE,FALSE,TRUE,TRUE,FALSE,0,FALSE,FALSE,0.000000,0.000000,0.000000,0.000000,0.000000,0.000000,1.000000,60.000000,FALSE,FALSE,FALSE,FALSE,0.000000,0.000000,FALSE,FALSE,FALSE,FALSE,FALSE,3,FALSE,13398,0.0,FALSE,2.4.2,45.000000,A330,Stephan Weiser ,2023-04-20 08:14:07 ,1,FALSE,0,0,0,FALSE,0.000000,FALSE,FALSE,FALSE,FALSE,0.000000,0,FALSE,FALSE,FALSE,FALSE,FALSE,0.000000,FALSE,0.0,0,0,FALSE
External,Back Right,34,53.792793,7.871115,87.331596,330.000000,0.000000,FALSE,FALSE,FALSE,TRUE,TRUE,FALSE,0,FALSE,FALSE,0.000000,0.000000,0.000000,0.000000,0.000000,0.000000,1.000000,60.000000,FALSE,FALSE,FALSE,FALSE,0.000000,0.000000,FALSE,FALSE,FALSE,FALSE,FALSE,3,FALSE,13398,0.0,FALSE,2.4.2,45.000000,A330,Stephan Weiser ,2023-04-20 08:14:07 ,1,FALSE,0,0,0,FALSE,0.000000,FALSE,FALSE,FALSE,FALSE,0.000000,0,FALSE,FALSE,FALSE,FALSE,FALSE,0.000000,FALSE,0.0,0,0,FALSE
External,Front Right,36,50.212635,5.871115,-72.601799,214.000000,0.000000,FALSE,FALSE,FALSE,TRUE,TRUE,FALSE,0,FALSE,FALSE,0.000000,0.000000,0.000000,0.000000,0.000000,0.000000,1.000000,60.000000,FALSE,FALSE,FALSE,FALSE,0.000000,0.000000,FALSE,FALSE,FALSE,FALSE,FALSE,3,FALSE,13398,0.0,FALSE,2.4.2,45.000000,A330,Stephan Weiser ,2023-04-20 08:14:07 ,1,FALSE,0,0,0,FALSE,0.000000,FALSE,FALSE,FALSE,FALSE,0.000000,0,FALSE,FALSE,FALSE,FALSE,FALSE,0.000000,FALSE,0.0,0,0,FALSE
External,Front Left,35,-49.350811,4.871115,-74.127357,150.000000,0.000000,FALSE,FALSE,FALSE,TRUE,TRUE,FALSE,0,FALSE,FALSE,0.000000,0.000000,0.000000,0.000000,0.000000,0.000000,1.000000,60.000000,FALSE,FALSE,FALSE,FALSE,0.000000,0.000000,FALSE,FALSE,FALSE,FALSE,FALSE,3,FALSE,13398,0.0,FALSE,2.4.2,45.000000,A330,Stephan Weiser ,2023-04-20 08:14:07 ,1,FALSE,0,0,0,FALSE,0.000000,FALSE,FALSE,FALSE,FALSE,0.000000,0,FALSE,FALSE,FALSE,FALSE,FALSE,0.000000,FALSE,0.0,0,0,FALSE
External,Top,0,-0.064379,140.647003,-1.559249,0.000000,270.000000,FALSE,FALSE,FALSE,TRUE,TRUE,FALSE,0,FALSE,FALSE,0.000000,0.000000,0.000000,0.000000,0.000000,0.000000,1.000000,60.000000,FALSE,FALSE,FALSE,FALSE,0.000000,0.000000,FALSE,FALSE,FALSE,FALSE,FALSE,3,FALSE,13398,0.0,FALSE,2.4.2,45.000000,A330,Stephan Weiser ,2023-04-20 08:14:07 ,1,FALSE,0,0,0,FALSE,0.000000,FALSE,FALSE,FALSE,FALSE,0.000000,0,FALSE,FALSE,FALSE,FALSE,FALSE,0.000000,FALSE,0.0,0,0,FALSE
External,Front,37,0.182147,-3.268799,-62.316467,180.000000,0.000000,FALSE,FALSE,FALSE,TRUE,TRUE,FALSE,0,FALSE,FALSE,0.000000,0.000000,0.000000,0.000000,0.000000,0.000000,1.000000,60.000000,FALSE,FALSE,FALSE,FALSE,0.000000,0.000000,FALSE,FALSE,FALSE,FALSE,FALSE,2,FALSE,13398,0.0,FALSE,2.4.2,45.000000,A330,Stephan Weiser ,2023-04-20 08:14:07 ,1,FALSE,0,0,0,FALSE,0.000000,FALSE,FALSE,FALSE,FALSE,0.000000,0,FALSE,FALSE,FALSE,FALSE,FALSE,0.000000,FALSE,0.0,0,0,FALSE
External,Left,0,59.297176,1.931200,0.938096,270.000000,0.000000,FALSE,FALSE,FALSE,TRUE,TRUE,FALSE,0,FALSE,FALSE,0.000000,0.000000,0.000000,0.000000,0.000000,0.000000,1.000000,60.000000,FALSE,FALSE,FALSE,FALSE,0.000000,0.000000,FALSE,FALSE,FALSE,FALSE,FALSE,3,FALSE,13398,0.0,FALSE,2.4.2,45.000000,A330,Stephan Weiser ,2023-04-20 08:14:07 ,1,FALSE,0,0,0,FALSE,0.000000,FALSE,FALSE,FALSE,FALSE,0.000000,0,FALSE,FALSE,FALSE,FALSE,FALSE,0.000000,FALSE,0.0,0,0,FALSE
External,Right,0,-61.702824,1.931200,0.938094,90.000000,0.000000,FALSE,FALSE,FALSE,TRUE,TRUE,FALSE,0,FALSE,FALSE,0.000000,0.000000,0.000000,0.000000,0.000000,0.000000,1.000000,60.000000,FALSE,FALSE,FALSE,FALSE,0.000000,0.000000,FALSE,FALSE,FALSE,FALSE,FALSE,3,FALSE,13398,0.0,FALSE,2.4.2,45.000000,A330,Stephan Weiser ,2023-04-20 08:14:07 ,1,FALSE,0,0,0,FALSE,0.000000,FALSE,FALSE,FALSE,FALSE,0.000000,0,FALSE,FALSE,FALSE,FALSE,FALSE,0.000000,FALSE,0.0,0,0,FALSE
External,Gear Right (inside),0,0.567619,-0.718807,0.663369,242.156250,335.625000,FALSE,FALSE,FALSE,TRUE,TRUE,FALSE,0,FALSE,FALSE,0.000000,0.000000,0.000000,0.000000,0.000000,0.000000,1.000000,75.599998,TRUE,FALSE,FALSE,FALSE,0.000000,0.000000,FALSE,FALSE,FALSE,FALSE,FALSE,1,FALSE,13398,0.0,FALSE,2.4.2,45.000000,A330,Stephan Weiser ,2023-04-20 08:14:07 ,1,FALSE,0,0,0,FALSE,0.000000,FALSE,FALSE,FALSE,FALSE,0.000000,0,FALSE,FALSE,FALSE,FALSE,FALSE,0.000000,FALSE,0.0,0,0,FALSE
External,Front Gear,38,0.019063,-3.230071,-6.898675,359.984375,4.000000,FALSE,FALSE,FALSE,TRUE,TRUE,FALSE,0,FALSE,FALSE,0.000000,0.000000,0.000000,0.000000,0.000000,0.000000,1.000000,60.000000,FALSE,FALSE,FALSE,FALSE,0.000000,0.000000,FALSE,FALSE,FALSE,FALSE,FALSE,2,FALSE,13398,0.0,FALSE,2.4.2,45.000000,A330,Stephan Weiser ,2023-04-20 08:14:07 ,1,FALSE,0,0,0,FALSE,0.000000,FALSE,FALSE,FALSE,FALSE,0.000000,0,FALSE,FALSE,FALSE,FALSE,FALSE,0.000000,FALSE,0.0,0,0,FALSE
External,Gear (all),39,0.028236,-3.678516,26.751974,359.984375,4.000000,FALSE,FALSE,FALSE,TRUE,TRUE,FALSE,0,FALSE,FALSE,0.000000,0.000000,0.000000,0.000000,0.000000,0.000000,1.000000,60.000000,FALSE,FALSE,FALSE,FALSE,0.000000,0.000000,FALSE,FALSE,FALSE,FALSE,FALSE,2,FALSE,13398,0.0,FALSE,2.4.2,45.000000,A330,Stephan Weiser ,2023-04-20 08:14:07 ,1,FALSE,0,0,0,FALSE,0.000000,FALSE,FALSE,FALSE,FALSE,0.000000,0,FALSE,FALSE,FALSE,FALSE,FALSE,0.000000,FALSE,0.0,0,0,FALSE
External,Back,40,0.045142,0.796248,88.774261,359.984375,0.000000,FALSE,FALSE,FALSE,TRUE,TRUE,FALSE,0,FALSE,FALSE,0.000000,0.000000,0.000000,0.000000,0.000000,0.000000,1.000000,60.000000,FALSE,FALSE,FALSE,FALSE,0.000000,0.000000,FALSE,FALSE,FALSE,FALSE,FALSE,2,FALSE,13398,0.0,FALSE,2.4.2,45.000000,A330,Stephan Weiser ,2023-04-20 08:14:07 ,1,FALSE,0,0,0,FALSE,0.000000,FALSE,FALSE,FALSE,FALSE,0.000000,0,FALSE,FALSE,FALSE,FALSE,FALSE,0.000000,FALSE,0.0,0,0,FALSE
External,Front Left (low),0,8.6357470,-3.150977,-30.326241,199.687500,4.750000,FALSE,FALSE,FALSE,TRUE,TRUE,FALSE,0,FALSE,FALSE,0.000000,0.000000,0.000000,0.000000,0.000000,0.000000,1.000000,60.000000,FALSE,FALSE,FALSE,FALSE,0.000000,0.000000,FALSE,FALSE,FALSE,FALSE,FALSE,2,FALSE,13398,0.0,FALSE,2.4.2,45.000000,A330,Stephan Weiser ,2023-04-20 08:14:07 ,1,FALSE,0,0,0,FALSE,0.000000,FALSE,FALSE,FALSE,FALSE,0.000000,0,FALSE,FALSE,FALSE,FALSE,FALSE,0.000000,FALSE,0.0,0,0,FALSE
