Category Name,Camera Name,View ID,X,Y,Z,heading,pitch,TrackIR Enabled,Smooth Transition,HeadShake,RetainMouseLookPosition, Enable Temporary Positioning,Enable Linear Transition,Linear Transition Frames,Enable Auto Advance,Limit TrackIR, Max TrackIR X,Max TrackIR Y,Max TrackIR Z,Min TrackIR X,Min TrackIR Y,Min TrackIR Z,Zoom,FOV,Enable FOV,Smooth Camera Joins, Enable Track Heading, Enable Track Pitch, CGY Offset, CGZ Offset, Enable Level Camera, Enable View Axis, Enable External Camera, Enable Cineflex Camera, Enable Free Camera, Initial Movement Range, Enable Bezier Transition, Run Code,Transition Seconds,Hidden Camera,X-Camera Version,Default FOV,Aircraft,Author,Camera File Version,Category Index,Manual Enable, Latitude,Longitude, Elevation, X-Plane 9 Chase View, roll, Target Following Camera, Scenic Flyer GA Panel, Scenic Flyer Glass Panel, Cinema Verite, CGX Offset, Hide Yoke, Enable Camera Axis, Enable XPRealistic, Enable RealView, Disable 3D Cockpit Zoom, AGL Camera, Height ABove AGL (Meters),Circle View, Transition Delay, Script ID, Camera Origin,Target Reciprocal 
SD Cockpit,Pilot View,0,-0.493703,1.144172,-6.011308,0.000000,0.000000,FALSE,TRUE,FALSE,TRUE,TRUE,FALSE,0,FALSE,FALSE,0.000000,0.000000,0.000000,0.000000,0.000000,0.000000,1.000000,60.000000,FALSE,FALSE,FALSE,FALSE,0.000000,0.000000,FALSE,FALSE,FALSE,FALSE,FALSE,1,FALSE,10964,0.0,FALSE,2.4.2,66.000000,LES_Saab_340A,Stephan Weiser ,2023-04-20 08:14:07 ,0,FALSE,0,0,0,FALSE,0.000000,FALSE,FALSE,FALSE,FALSE,0.000000,0,FALSE,FALSE,FALSE,FALSE,FALSE,0.000000,FALSE,0.0,0,0,FALSE
SD Cockpit,Co Pilot View,0,0.461296,1.144172,-6.011308,0.000000,0.000000,FALSE,TRUE,FALSE,TRUE,TRUE,FALSE,0,FALSE,FALSE,0.000000,0.000000,0.000000,0.000000,0.000000,0.000000,1.000000,60.000000,FALSE,FALSE,FALSE,FALSE,0.000000,0.000000,FALSE,FALSE,FALSE,FALSE,FALSE,1,FALSE,10964,0.0,FALSE,2.4.2,66.000000,LES_Saab_340A,Stephan Weiser ,2023-04-20 08:14:07 ,0,FALSE,0,0,0,FALSE,0.000000,FALSE,FALSE,FALSE,FALSE,0.000000,0,FALSE,FALSE,FALSE,FALSE,FALSE,0.000000,FALSE,0.0,0,0,FALSE
SD Cockpit,Right Window,0,0.461651,1.139000,-5.870250,86.000000,0.000000,FALSE,TRUE,FALSE,TRUE,TRUE,FALSE,0,FALSE,FALSE,0.000000,0.000000,0.000000,0.000000,0.000000,0.000000,1.000000,60.000000,FALSE,FALSE,FALSE,FALSE,0.000000,0.000000,FALSE,FALSE,FALSE,FALSE,FALSE,1,FALSE,10964,0.0,FALSE,2.4.2,66.000000,LES_Saab_340A,Stephan Weiser ,2023-04-20 08:14:07 ,0,FALSE,0,0,0,FALSE,0.000000,FALSE,FALSE,FALSE,FALSE,0.000000,0,FALSE,FALSE,FALSE,FALSE,FALSE,0.000000,FALSE,0.0,0,0,FALSE
SD Cockpit,Left Window,0,-0.493703,1.139172,-5.806303,277.000000,0.000000,FALSE,TRUE,FALSE,TRUE,TRUE,FALSE,0,FALSE,FALSE,0.000000,0.000000,0.000000,0.000000,0.000000,0.000000,1.000000,60.000000,FALSE,FALSE,FALSE,FALSE,0.000000,0.000000,FALSE,FALSE,FALSE,FALSE,FALSE,1,FALSE,10964,0.0,FALSE,2.4.2,66.000000,LES_Saab_340A,Stephan Weiser ,2023-04-20 08:14:07 ,0,FALSE,0,0,0,FALSE,0.000000,FALSE,FALSE,FALSE,FALSE,0.000000,0,FALSE,FALSE,FALSE,FALSE,FALSE,0.000000,FALSE,0.0,0,0,FALSE
SD External,Left Wing,0,-1.118206,0.971115,3.070008,316.109375,356.125000,FALSE,FALSE,FALSE,TRUE,TRUE,FALSE,0,FALSE,FALSE,0.000000,0.000000,0.000000,0.000000,0.000000,0.000000,1.000000,78.400002,TRUE,FALSE,FALSE,FALSE,0.000000,0.000000,FALSE,FALSE,FALSE,FALSE,FALSE,2,FALSE,10964,0.0,FALSE,2.4.2,66.000000,LES_Saab_340A,Stephan Weiser ,2023-04-20 08:14:07 ,1,FALSE,0,0,0,FALSE,0.000000,FALSE,FALSE,FALSE,FALSE,0.000000,0,FALSE,FALSE,FALSE,FALSE,FALSE,0.000000,FALSE,0.0,0,0,FALSE
SD External,Right Wing,0,1.271435,0.997286,3.112535,40.184372,356.125000,FALSE,FALSE,FALSE,TRUE,TRUE,FALSE,0,FALSE,FALSE,0.000000,0.000000,0.000000,0.000000,0.000000,0.000000,1.000000,78.400002,TRUE,FALSE,FALSE,FALSE,0.000000,0.000000,FALSE,FALSE,FALSE,FALSE,FALSE,2,FALSE,10964,0.0,FALSE,2.4.2,66.000000,LES_Saab_340A,Stephan Weiser ,2023-04-20 08:14:07 ,1,FALSE,0,0,0,FALSE,0.000000,FALSE,FALSE,FALSE,FALSE,0.000000,0,FALSE,FALSE,FALSE,FALSE,FALSE,0.000000,FALSE,0.0,0,0,FALSE
SD External,Back Left,0,-23.207207,2.871115,33.638008,30.000000,0.000000,FALSE,FALSE,FALSE,TRUE,TRUE,FALSE,0,FALSE,FALSE,0.000000,0.000000,0.000000,0.000000,0.000000,0.000000,1.000000,60.000000,FALSE,FALSE,FALSE,FALSE,0.000000,0.000000,FALSE,FALSE,FALSE,FALSE,FALSE,3,FALSE,10964,0.0,FALSE,2.4.2,66.000000,LES_Saab_340A,Stephan Weiser ,2023-04-20 08:14:07 ,1,FALSE,0,0,0,FALSE,0.000000,FALSE,FALSE,FALSE,FALSE,0.000000,0,FALSE,FALSE,FALSE,FALSE,FALSE,0.000000,FALSE,0.0,0,0,FALSE
SD External,Back Right,0,19.560741,2.871000,32.039928,330.000000,0.000000,FALSE,FALSE,FALSE,TRUE,TRUE,FALSE,0,FALSE,FALSE,0.000000,0.000000,0.000000,0.000000,0.000000,0.000000,1.000000,60.000000,FALSE,FALSE,FALSE,FALSE,0.000000,0.000000,FALSE,FALSE,FALSE,FALSE,FALSE,3,FALSE,10964,0.0,FALSE,2.4.2,66.000000,LES_Saab_340A,Stephan Weiser ,2023-04-20 08:14:07 ,1,FALSE,0,0,0,FALSE,0.000000,FALSE,FALSE,FALSE,FALSE,0.000000,0,FALSE,FALSE,FALSE,FALSE,FALSE,0.000000,FALSE,0.0,0,0,FALSE
SD External,Front Right,0,18.338654,2.871115,-25.346668,214.000000,0.000000,FALSE,FALSE,FALSE,TRUE,TRUE,FALSE,0,FALSE,FALSE,0.000000,0.000000,0.000000,0.000000,0.000000,0.000000,1.000000,60.000000,FALSE,FALSE,FALSE,FALSE,0.000000,0.000000,FALSE,FALSE,FALSE,FALSE,FALSE,3,FALSE,10964,0.0,FALSE,2.4.2,66.000000,LES_Saab_340A,Stephan Weiser ,2023-04-20 08:14:07 ,1,FALSE,0,0,0,FALSE,0.000000,FALSE,FALSE,FALSE,FALSE,0.000000,0,FALSE,FALSE,FALSE,FALSE,FALSE,0.000000,FALSE,0.0,0,0,FALSE
SD External,Front Left,0,-19.252733,2.871000,-27.995981,150.000000,0.000000,FALSE,FALSE,FALSE,TRUE,TRUE,FALSE,0,FALSE,FALSE,0.000000,0.000000,0.000000,0.000000,0.000000,0.000000,1.000000,60.000000,FALSE,FALSE,FALSE,FALSE,0.000000,0.000000,FALSE,FALSE,FALSE,FALSE,FALSE,3,FALSE,10964,0.0,FALSE,2.4.2,66.000000,LES_Saab_340A,Stephan Weiser ,2023-04-20 08:14:07 ,1,FALSE,0,0,0,FALSE,0.000000,FALSE,FALSE,FALSE,FALSE,0.000000,0,FALSE,FALSE,FALSE,FALSE,FALSE,0.000000,FALSE,0.0,0,0,FALSE
SD External,Front,0,0.182142,0.531200,-29.316919,180.000000,0.000000,FALSE,FALSE,FALSE,TRUE,TRUE,FALSE,0,FALSE,FALSE,0.000000,0.000000,0.000000,0.000000,0.000000,0.000000,1.000000,60.000000,FALSE,FALSE,FALSE,FALSE,0.000000,0.000000,FALSE,FALSE,FALSE,FALSE,FALSE,2,FALSE,10964,0.0,FALSE,2.4.2,66.000000,LES_Saab_340A,Stephan Weiser ,2023-04-20 08:14:07 ,1,FALSE,0,0,0,FALSE,0.000000,FALSE,FALSE,FALSE,FALSE,0.000000,0,FALSE,FALSE,FALSE,FALSE,FALSE,0.000000,FALSE,0.0,0,0,FALSE
SD External,Gear (all),0,0.023070,-2.353142,7.798288,359.984375,4.000000,FALSE,FALSE,FALSE,TRUE,TRUE,FALSE,0,FALSE,FALSE,0.000000,0.000000,0.000000,0.000000,0.000000,0.000000,1.000000,60.000000,FALSE,FALSE,FALSE,FALSE,0.000000,0.000000,FALSE,FALSE,FALSE,FALSE,FALSE,2,FALSE,10964,0.0,FALSE,2.4.2,66.000000,LES_Saab_340A,Stephan Weiser ,2023-04-20 08:14:07 ,1,FALSE,0,0,0,FALSE,0.000000,FALSE,FALSE,FALSE,FALSE,0.000000,0,FALSE,FALSE,FALSE,FALSE,FALSE,0.000000,FALSE,0.0,0,0,FALSE
SD External,Back,0,0.031431,0.796248,38.475029,359.984375,0.000000,FALSE,FALSE,FALSE,TRUE,TRUE,FALSE,0,FALSE,FALSE,0.000000,0.000000,0.000000,0.000000,0.000000,0.000000,1.000000,60.000000,FALSE,FALSE,FALSE,FALSE,0.000000,0.000000,FALSE,FALSE,FALSE,FALSE,FALSE,2,FALSE,10964,0.0,FALSE,2.4.2,66.000000,LES_Saab_340A,Stephan Weiser ,2023-04-20 08:14:07 ,1,FALSE,0,0,0,FALSE,0.000000,FALSE,FALSE,FALSE,FALSE,0.000000,0,FALSE,FALSE,FALSE,FALSE,FALSE,0.000000,FALSE,0.0,0,0,FALSE
Category 5,(Copy of) Overhead,0,-0.002757,0.621715,-5.783863,0.000000,74.875000,FALSE,FALSE,FALSE,TRUE,TRUE,FALSE,0,FALSE,FALSE,0.000000,0.000000,0.000000,0.000000,0.000000,0.000000,1.000000,85.300003,TRUE,FALSE,FALSE,FALSE,0.000000,0.000000,FALSE,FALSE,FALSE,FALSE,FALSE,1,FALSE,10964,0.0,FALSE,2.4.2,66.000000,LES_Saab_340A,Stephan Weiser ,2023-04-20 08:14:07 ,2,FALSE,0,0,0,FALSE,0.000000,FALSE,FALSE,FALSE,FALSE,0.000000,0,FALSE,FALSE,FALSE,FALSE,FALSE,0.000000,FALSE,0.0,0,0,FALSE
Cockpit,Pilot View,2,-0.493703,1.144172,-5.806303,0.000000,0.000000,FALSE,FALSE,FALSE,TRUE,TRUE,FALSE,0,FALSE,FALSE,0.000000,0.000000,0.000000,0.000000,0.000000,0.000000,1.000000,60.000000,FALSE,FALSE,FALSE,FALSE,0.000000,0.000000,FALSE,FALSE,FALSE,FALSE,FALSE,1,FALSE,10964,0.0,FALSE,2.4.2,66.000000,LES_Saab_340A,Stephan Weiser ,2023-04-20 08:14:07 ,3,FALSE,0,0,0,FALSE,0.000000,FALSE,FALSE,FALSE,FALSE,0.000000,0,FALSE,FALSE,FALSE,FALSE,FALSE,0.000000,FALSE,0.0,0,0,FALSE
Cockpit,Pilot View (Headtrack),0,-0.523703,1.063168,-15.982449,0.000000,358.000000,TRUE,FALSE,FALSE,TRUE,TRUE,FALSE,0,FALSE,FALSE,0.000000,0.000000,0.000000,0.000000,0.000000,0.000000,1.000000,60.000000,FALSE,FALSE,FALSE,FALSE,0.000000,0.000000,FALSE,FALSE,FALSE,FALSE,FALSE,1,FALSE,10964,0.0,FALSE,2.4.2,66.000000,LES_Saab_340A,Stephan Weiser ,2023-04-20 08:14:07 ,3,FALSE,0,0,0,FALSE,0.000000,FALSE,FALSE,FALSE,FALSE,0.000000,0,FALSE,FALSE,FALSE,FALSE,FALSE,0.000000,FALSE,0.0,0,0,FALSE
Cockpit,Pilot View (HUD),0,-0.523703,1.029173,-15.851351,0.000000,0.000000,FALSE,FALSE,FALSE,TRUE,TRUE,FALSE,0,FALSE,FALSE,0.000000,0.000000,0.000000,0.000000,0.000000,0.000000,1.000000,60.000000,FALSE,FALSE,FALSE,FALSE,0.000000,0.000000,FALSE,FALSE,FALSE,FALSE,FALSE,1,FALSE,10964,0.0,FALSE,2.4.2,66.000000,LES_Saab_340A,Stephan Weiser ,2023-04-20 08:14:07 ,3,FALSE,0,0,0,FALSE,0.000000,FALSE,FALSE,FALSE,FALSE,0.000000,0,FALSE,FALSE,FALSE,FALSE,FALSE,0.000000,FALSE,0.0,0,0,FALSE
Cockpit,CoPilot,10,0.473368,1.029173,-16.106003,0.000000,0.000000,FALSE,FALSE,FALSE,TRUE,TRUE,FALSE,0,FALSE,FALSE,0.000000,0.000000,0.000000,0.000000,0.000000,0.000000,1.000000,60.000000,FALSE,FALSE,FALSE,FALSE,0.000000,0.000000,FALSE,FALSE,FALSE,FALSE,FALSE,1,FALSE,10964,0.0,FALSE,2.4.2,66.000000,LES_Saab_340A,Stephan Weiser ,2023-04-20 08:14:07 ,3,FALSE,0,0,0,FALSE,0.000000,FALSE,FALSE,FALSE,FALSE,0.000000,0,FALSE,FALSE,FALSE,FALSE,FALSE,0.000000,FALSE,0.0,0,0,FALSE
Cockpit,Left Window,3,-0.493703,1.139172,-5.806303,299.000000,0.000000,FALSE,FALSE,FALSE,TRUE,TRUE,FALSE,0,FALSE,FALSE,0.000000,0.000000,0.000000,0.000000,0.000000,0.000000,1.000000,60.000000,FALSE,FALSE,FALSE,FALSE,0.000000,0.000000,FALSE,FALSE,FALSE,FALSE,FALSE,1,FALSE,10964,0.0,FALSE,2.4.2,66.000000,LES_Saab_340A,Stephan Weiser ,2023-04-20 08:14:07 ,3,FALSE,0,0,0,FALSE,0.000000,FALSE,FALSE,FALSE,FALSE,0.000000,0,FALSE,FALSE,FALSE,FALSE,FALSE,0.000000,FALSE,0.0,0,0,FALSE
Cockpit,Right Window,5,0.491297,1.139000,-5.446294,46.000000,0.000000,FALSE,FALSE,FALSE,TRUE,TRUE,FALSE,0,FALSE,FALSE,0.000000,0.000000,0.000000,0.000000,0.000000,0.000000,1.000000,60.000000,FALSE,FALSE,FALSE,FALSE,0.000000,0.000000,FALSE,FALSE,FALSE,FALSE,FALSE,1,FALSE,10964,0.0,FALSE,2.4.2,66.000000,LES_Saab_340A,Stephan Weiser ,2023-04-20 08:14:07 ,3,FALSE,0,0,0,FALSE,0.000000,FALSE,FALSE,FALSE,FALSE,0.000000,0,FALSE,FALSE,FALSE,FALSE,FALSE,0.000000,FALSE,0.0,0,0,FALSE
Cockpit,Complete Instruments,1,-0.002757,1.136715,-5.248851,0.000000,347.500000,FALSE,FALSE,FALSE,TRUE,TRUE,FALSE,0,FALSE,FALSE,0.000000,0.000000,0.000000,0.000000,0.000000,0.000000,1.000000,57.700001,TRUE,FALSE,FALSE,FALSE,0.000000,0.000000,FALSE,FALSE,FALSE,FALSE,FALSE,1,FALSE,10964,0.0,FALSE,2.4.2,66.000000,LES_Saab_340A,Stephan Weiser ,2023-04-20 08:14:07 ,3,FALSE,0,0,0,FALSE,0.000000,FALSE,FALSE,FALSE,FALSE,0.000000,0,FALSE,FALSE,FALSE,FALSE,FALSE,0.000000,FALSE,0.0,0,0,FALSE
Cockpit,Pedestral,0,-0.013703,1.399172,-5.906305,0.000000,270.000000,FALSE,FALSE,FALSE,TRUE,TRUE,FALSE,0,FALSE,FALSE,0.000000,0.000000,0.000000,0.000000,0.000000,0.000000,1.000000,60.000000,FALSE,FALSE,FALSE,FALSE,0.000000,0.000000,FALSE,FALSE,FALSE,FALSE,FALSE,1,FALSE,10964,0.0,FALSE,2.4.2,66.000000,LES_Saab_340A,Stephan Weiser ,2023-04-20 08:14:07 ,3,FALSE,0,0,0,FALSE,0.000000,FALSE,FALSE,FALSE,FALSE,0.000000,0,FALSE,FALSE,FALSE,FALSE,FALSE,0.000000,FALSE,0.0,0,0,FALSE
Cockpit,Throttle Quadrant,0,-0.013703,1.354172,-6.166311,0.000000,270.000000,FALSE,FALSE,FALSE,TRUE,TRUE,FALSE,0,FALSE,FALSE,0.000000,0.000000,0.000000,0.000000,0.000000,0.000000,1.000000,57.099998,TRUE,FALSE,FALSE,FALSE,0.000000,0.000000,FALSE,FALSE,FALSE,FALSE,FALSE,1,FALSE,10964,0.0,FALSE,2.4.2,66.000000,LES_Saab_340A,Stephan Weiser ,2023-04-20 08:14:07 ,3,FALSE,0,0,0,FALSE,0.000000,FALSE,FALSE,FALSE,FALSE,0.000000,0,FALSE,FALSE,FALSE,FALSE,FALSE,0.000000,FALSE,0.0,0,0,FALSE
Cockpit,Overhead,9,-0.002757,0.621715,-6.033869,0.000000,90.000000,FALSE,FALSE,FALSE,TRUE,TRUE,FALSE,0,FALSE,FALSE,0.000000,0.000000,0.000000,0.000000,0.000000,0.000000,1.000000,85.300003,TRUE,FALSE,FALSE,FALSE,0.000000,0.000000,FALSE,FALSE,FALSE,FALSE,FALSE,1,FALSE,10964,0.0,FALSE,2.4.2,66.000000,LES_Saab_340A,Stephan Weiser ,2023-04-20 08:14:07 ,3,FALSE,0,0,0,FALSE,0.000000,FALSE,FALSE,FALSE,FALSE,0.000000,0,FALSE,FALSE,FALSE,FALSE,FALSE,0.000000,FALSE,0.0,0,0,FALSE
External,Left Wing,31,-1.118206,0.971115,3.070008,316.109375,356.125000,FALSE,FALSE,FALSE,TRUE,TRUE,FALSE,0,FALSE,FALSE,0.000000,0.000000,0.000000,0.000000,0.000000,0.000000,1.000000,78.400002,TRUE,FALSE,FALSE,FALSE,0.000000,0.000000,FALSE,FALSE,FALSE,FALSE,FALSE,2,FALSE,10964,0.0,FALSE,2.4.2,66.000000,LES_Saab_340A,Stephan Weiser ,2023-04-20 08:14:07 ,4,FALSE,0,0,0,FALSE,0.000000,FALSE,FALSE,FALSE,FALSE,0.000000,0,FALSE,FALSE,FALSE,FALSE,FALSE,0.000000,FALSE,0.0,0,0,FALSE
External,Left Wing (Turbine),0,-1.858044,0.969596,-0.406081,305.000000,348.000000,FALSE,FALSE,FALSE,TRUE,TRUE,FALSE,0,FALSE,FALSE,0.000000,0.000000,0.000000,0.000000,0.000000,0.000000,1.000000,68.000000,TRUE,FALSE,FALSE,FALSE,0.000000,0.000000,FALSE,FALSE,FALSE,FALSE,FALSE,2,FALSE,10964,0.0,FALSE,2.4.2,66.000000,LES_Saab_340A,Stephan Weiser ,2023-04-20 08:14:07 ,4,FALSE,0,0,0,FALSE,0.000000,FALSE,FALSE,FALSE,FALSE,0.000000,0,FALSE,FALSE,FALSE,FALSE,FALSE,0.000000,FALSE,0.0,0,0,FALSE
External,Right Wing,32,1.271435,0.997286,3.112535,40.184372,356.125000,FALSE,FALSE,FALSE,TRUE,TRUE,FALSE,0,FALSE,FALSE,0.000000,0.000000,0.000000,0.000000,0.000000,0.000000,1.000000,78.400002,TRUE,FALSE,FALSE,FALSE,0.000000,0.000000,FALSE,FALSE,FALSE,FALSE,FALSE,2,FALSE,10964,0.0,FALSE,2.4.2,66.000000,LES_Saab_340A,Stephan Weiser ,2023-04-20 08:14:07 ,4,FALSE,0,0,0,FALSE,0.000000,FALSE,FALSE,FALSE,FALSE,0.000000,0,FALSE,FALSE,FALSE,FALSE,FALSE,0.000000,FALSE,0.0,0,0,FALSE
External,Right Wing (Turbine),0,1.831624,0.871115,-0.535394,55.000000,348.000000,FALSE,FALSE,FALSE,TRUE,TRUE,FALSE,0,FALSE,FALSE,0.000000,0.000000,0.000000,0.000000,0.000000,0.000000,1.000000,68.000000,TRUE,FALSE,FALSE,FALSE,0.000000,0.000000,FALSE,FALSE,FALSE,FALSE,FALSE,2,FALSE,10964,0.0,FALSE,2.4.2,66.000000,LES_Saab_340A,Stephan Weiser ,2023-04-20 08:14:07 ,4,FALSE,0,0,0,FALSE,0.000000,FALSE,FALSE,FALSE,FALSE,0.000000,0,FALSE,FALSE,FALSE,FALSE,FALSE,0.000000,FALSE,0.0,0,0,FALSE
External,Back Left,33,-23.207207,2.871115,33.638008,30.000000,0.000000,FALSE,FALSE,FALSE,TRUE,TRUE,FALSE,0,FALSE,FALSE,0.000000,0.000000,0.000000,0.000000,0.000000,0.000000,1.000000,60.000000,FALSE,FALSE,FALSE,FALSE,0.000000,0.000000,FALSE,FALSE,FALSE,FALSE,FALSE,3,FALSE,10964,0.0,FALSE,2.4.2,66.000000,LES_Saab_340A,Stephan Weiser ,2023-04-20 08:14:07 ,4,FALSE,0,0,0,FALSE,0.000000,FALSE,FALSE,FALSE,FALSE,0.000000,0,FALSE,FALSE,FALSE,FALSE,FALSE,0.000000,FALSE,0.0,0,0,FALSE
External,Back Right,34,19.560741,2.871000,32.039928,330.000000,0.000000,FALSE,FALSE,FALSE,TRUE,TRUE,FALSE,0,FALSE,FALSE,0.000000,0.000000,0.000000,0.000000,0.000000,0.000000,1.000000,60.000000,FALSE,FALSE,FALSE,FALSE,0.000000,0.000000,FALSE,FALSE,FALSE,FALSE,FALSE,3,FALSE,10964,0.0,FALSE,2.4.2,66.000000,LES_Saab_340A,Stephan Weiser ,2023-04-20 08:14:07 ,4,FALSE,0,0,0,FALSE,0.000000,FALSE,FALSE,FALSE,FALSE,0.000000,0,FALSE,FALSE,FALSE,FALSE,FALSE,0.000000,FALSE,0.0,0,0,FALSE
External,Front Right,36,18.338654,2.871115,-25.346668,214.000000,0.000000,FALSE,FALSE,FALSE,TRUE,TRUE,FALSE,0,FALSE,FALSE,0.000000,0.000000,0.000000,0.000000,0.000000,0.000000,1.000000,60.000000,FALSE,FALSE,FALSE,FALSE,0.000000,0.000000,FALSE,FALSE,FALSE,FALSE,FALSE,3,FALSE,10964,0.0,FALSE,2.4.2,66.000000,LES_Saab_340A,Stephan Weiser ,2023-04-20 08:14:07 ,4,FALSE,0,0,0,FALSE,0.000000,FALSE,FALSE,FALSE,FALSE,0.000000,0,FALSE,FALSE,FALSE,FALSE,FALSE,0.000000,FALSE,0.0,0,0,FALSE
External,Front Left,35,-19.252733,2.871000,-27.995981,150.000000,0.000000,FALSE,FALSE,FALSE,TRUE,TRUE,FALSE,0,FALSE,FALSE,0.000000,0.000000,0.000000,0.000000,0.000000,0.000000,1.000000,60.000000,FALSE,FALSE,FALSE,FALSE,0.000000,0.000000,FALSE,FALSE,FALSE,FALSE,FALSE,3,FALSE,10964,0.0,FALSE,2.4.2,66.000000,LES_Saab_340A,Stephan Weiser ,2023-04-20 08:14:07 ,4,FALSE,0,0,0,FALSE,0.000000,FALSE,FALSE,FALSE,FALSE,0.000000,0,FALSE,FALSE,FALSE,FALSE,FALSE,0.000000,FALSE,0.0,0,0,FALSE
External,Top,0,-0.064379,73.647003,-0.559249,0.000000,270.000000,FALSE,FALSE,FALSE,TRUE,TRUE,FALSE,0,FALSE,FALSE,0.000000,0.000000,0.000000,0.000000,0.000000,0.000000,1.000000,60.000000,FALSE,FALSE,FALSE,FALSE,0.000000,0.000000,FALSE,FALSE,FALSE,FALSE,FALSE,3,FALSE,10964,0.0,FALSE,2.4.2,66.000000,LES_Saab_340A,Stephan Weiser ,2023-04-20 08:14:07 ,4,FALSE,0,0,0,FALSE,0.000000,FALSE,FALSE,FALSE,FALSE,0.000000,0,FALSE,FALSE,FALSE,FALSE,FALSE,0.000000,FALSE,0.0,0,0,FALSE
External,Front,37,0.182142,0.531200,-29.316919,180.000000,0.000000,FALSE,FALSE,FALSE,TRUE,TRUE,FALSE,0,FALSE,FALSE,0.000000,0.000000,0.000000,0.000000,0.000000,0.000000,1.000000,60.000000,FALSE,FALSE,FALSE,FALSE,0.000000,0.000000,FALSE,FALSE,FALSE,FALSE,FALSE,2,FALSE,10964,0.0,FALSE,2.4.2,66.000000,LES_Saab_340A,Stephan Weiser ,2023-04-20 08:14:07 ,4,FALSE,0,0,0,FALSE,0.000000,FALSE,FALSE,FALSE,FALSE,0.000000,0,FALSE,FALSE,FALSE,FALSE,FALSE,0.000000,FALSE,0.0,0,0,FALSE
External,Left,0,59.297176,1.931200,0.938096,270.000000,0.000000,FALSE,FALSE,FALSE,TRUE,TRUE,FALSE,0,FALSE,FALSE,0.000000,0.000000,0.000000,0.000000,0.000000,0.000000,1.000000,60.000000,FALSE,FALSE,FALSE,FALSE,0.000000,0.000000,FALSE,FALSE,FALSE,FALSE,FALSE,3,FALSE,10964,0.0,FALSE,2.4.2,66.000000,LES_Saab_340A,Stephan Weiser ,2023-04-20 08:14:07 ,4,FALSE,0,0,0,FALSE,0.000000,FALSE,FALSE,FALSE,FALSE,0.000000,0,FALSE,FALSE,FALSE,FALSE,FALSE,0.000000,FALSE,0.0,0,0,FALSE
External,Right,0,-61.702824,1.931200,0.938094,90.000000,0.000000,FALSE,FALSE,FALSE,TRUE,TRUE,FALSE,0,FALSE,FALSE,0.000000,0.000000,0.000000,0.000000,0.000000,0.000000,1.000000,60.000000,FALSE,FALSE,FALSE,FALSE,0.000000,0.000000,FALSE,FALSE,FALSE,FALSE,FALSE,3,FALSE,10964,0.0,FALSE,2.4.2,66.000000,LES_Saab_340A,Stephan Weiser ,2023-04-20 08:14:07 ,4,FALSE,0,0,0,FALSE,0.000000,FALSE,FALSE,FALSE,FALSE,0.000000,0,FALSE,FALSE,FALSE,FALSE,FALSE,0.000000,FALSE,0.0,0,0,FALSE
External,Gear Right (inside),0,0.567619,-0.718807,0.663369,242.156250,335.625000,FALSE,FALSE,FALSE,TRUE,TRUE,FALSE,0,FALSE,FALSE,0.000000,0.000000,0.000000,0.000000,0.000000,0.000000,1.000000,75.599998,TRUE,FALSE,FALSE,FALSE,0.000000,0.000000,FALSE,FALSE,FALSE,FALSE,FALSE,1,FALSE,10964,0.0,FALSE,2.4.2,66.000000,LES_Saab_340A,Stephan Weiser ,2023-04-20 08:14:07 ,4,FALSE,0,0,0,FALSE,0.000000,FALSE,FALSE,FALSE,FALSE,0.000000,0,FALSE,FALSE,FALSE,FALSE,FALSE,0.000000,FALSE,0.0,0,0,FALSE
External,Front Gear,38,0.020450,-3.585829,-1.811102,359.984375,4.000000,FALSE,FALSE,FALSE,TRUE,TRUE,FALSE,0,FALSE,FALSE,0.000000,0.000000,0.000000,0.000000,0.000000,0.000000,1.000000,60.000000,FALSE,FALSE,FALSE,FALSE,0.000000,0.000000,FALSE,FALSE,FALSE,FALSE,FALSE,2,FALSE,10964,0.0,FALSE,2.4.2,66.000000,LES_Saab_340A,Stephan Weiser ,2023-04-20 08:14:07 ,4,FALSE,0,0,0,FALSE,0.000000,FALSE,FALSE,FALSE,FALSE,0.000000,0,FALSE,FALSE,FALSE,FALSE,FALSE,0.000000,FALSE,0.0,0,0,FALSE
External,Gear (all),39,0.024674,-2.764706,13.683907,359.984375,4.000000,FALSE,FALSE,FALSE,TRUE,TRUE,FALSE,0,FALSE,FALSE,0.000000,0.000000,0.000000,0.000000,0.000000,0.000000,1.000000,60.000000,FALSE,FALSE,FALSE,FALSE,0.000000,0.000000,FALSE,FALSE,FALSE,FALSE,FALSE,2,FALSE,10964,0.0,FALSE,2.4.2,66.000000,LES_Saab_340A,Stephan Weiser ,2023-04-20 08:14:07 ,4,FALSE,0,0,0,FALSE,0.000000,FALSE,FALSE,FALSE,FALSE,0.000000,0,FALSE,FALSE,FALSE,FALSE,FALSE,0.000000,FALSE,0.0,0,0,FALSE
External,Back,40,0.031431,0.796248,38.475029,359.984375,0.000000,FALSE,FALSE,FALSE,TRUE,TRUE,FALSE,0,FALSE,FALSE,0.000000,0.000000,0.000000,0.000000,0.000000,0.000000,1.000000,60.000000,FALSE,FALSE,FALSE,FALSE,0.000000,0.000000,FALSE,FALSE,FALSE,FALSE,FALSE,2,FALSE,10964,0.0,FALSE,2.4.2,66.000000,LES_Saab_340A,Stephan Weiser ,2023-04-20 08:14:07 ,4,FALSE,0,0,0,FALSE,0.000000,FALSE,FALSE,FALSE,FALSE,0.000000,0,FALSE,FALSE,FALSE,FALSE,FALSE,0.000000,FALSE,0.0,0,0,FALSE
External,Front Left (low),0,8.635747,-3.150977,-30.326241,199.687500,4.750000,FALSE,FALSE,FALSE,TRUE,TRUE,FALSE,0,FALSE,FALSE,0.000000,0.000000,0.000000,0.000000,0.000000,0.000000,1.000000,60.000000,FALSE,FALSE,FALSE,FALSE,0.000000,0.000000,FALSE,FALSE,FALSE,FALSE,FALSE,2,FALSE,10964,0.0,FALSE,2.4.2,66.000000,LES_Saab_340A,Stephan Weiser ,2023-04-20 08:14:07 ,4,FALSE,0,0,0,FALSE,0.000000,FALSE,FALSE,FALSE,FALSE,0.000000,0,FALSE,FALSE,FALSE,FALSE,FALSE,0.000000,FALSE,0.0,0,0,FALSE
